placeName;getty;gnd;long;lat;comment
Aabenraa;7003423;;9.4333;55.0500;
Aachen;;4000003-5;6.083333;50.776388;
Aarau;7007266;;8.0667;47.4;
Aarhus;7003442;;10.2167;56.1667;
Abano Terme;;4359172-3;11.791410;45.360990;
Abbeville;;4383593-4;1.833329;50.100000;
Abensberg;;4084641-6;11.849722;48.816666;
Aberdeen;;4079606-1;-2.098139;57.143689;
Agen;;4079641-3;0.633330;44.200000;
Aix-en-Provence;7010786;;5.45;43.5167;
Alcalá de Henares;7007139;;-3.3667;40.4667;
Alexandria;;4001138-0;29.955269;31.215640;
Alfdorf;;4301693-5;9.718569;48.843850;
Alkmaar;7007057;4243503-1;4.7333;52.6333;
Allendorf (Landkreis Saalfeld-Rudolstadt);;7583699-3;11.158055;50.654722;
Alsfeld;;4001366-2;9.270820;50.751849;
Altdorf;1038166;4001388-1;11.3667;49.3833;
Altena (Westf.);;4001401-0;7.673359;51.294719;
Altenburg;7012790;;12.45;50.9833;
Altenburg (Thüringen);7012790;4001409-5;12.45;50.9833;
Altenhof;7059988;;10.8833;50.2500;
Altmühlmünster;7024685;;11.6167;48.9833;
Altona;7012310;;9.9333;53.55;
Amberg;7063202;4001632-8;10.6833;48.0667;
Amiens;;4085690-2;2.299999;49.899999;
Amsterdam;7006952;4001783-7;4.9;52.35;
Andernach;;4001919-6;7.404166;50.430833;
Angers;7008480;4002024-1;-.5333;47.4833;
Annaberg (Erzgebirge);;4002113-0;13.005000;50.578611;
Annaberg-Buchholz;7012791;;13;50.5667;
Ansbach;7004459;4002170-1;10.55;49.3;
Antwerpen;7007856;4002364-3;4.4167;51.2167;
Arezzo;;4002888-4;11.876910;43.461390;
Arles;7008775;;4.6333;43.6833;
Armsfeld;;4638262-8;9.064080;51.052599;
Arnheim;7006876;4002980-3;5.8833;52;
Arnsberg;7004440;;8.05;51.3833;
Arnstadt;7012792;4003011-8;10.95;50.8333;
Arpino;;4427172-4;13.608810;41.647419;
Arras;;4085976-9;2.781860;50.293010;
Aschaffenburg;7004322;;9.15;49.9833;
Aschersleben;1036362;4086015-2;11.4667;51.75;
Aschersleben-Mehringen;;7727905-0;11.512639;51.726630;
Athen;;4003366-1;23.716219;37.979449;
Attendorn;;4003450-1;7.903330;51.126449;
Augsburg;7004324;4003614-5;10.9;48.35;
Aurich;;4003660-1;7.482319;53.469189;
Aurich;1038265;;7.4833;53.4667;
Aurillac;;4079875-6;2.450000;44.916670;
Auvers-sur-Oise;7008030;;2.1667;49.0833;
Avignon;7008799;4004019-7;4.8;43.9333;
Bacharach;7005110;;7.7667;50.0667;
Bad Bentheim;7012362;;7.1667;52.3167;
Bad Bergzabern;;4087278-6;8.200000;49.102449;
Bad Hersfeld;7012967;4024607-3;9.7167;50.8833;
Bad Kreuznach;7012371;;7.8667;49.85;
Bad Königshofen i. Grabfeld;;4098660-3;10.468611;50.300555;
Bad Langensalza;;4034508-7;10.645833;51.107500;
Bad Liebenwerda;;4099622-0;13.394590;51.518259;
Bad Sassendorf;1038376;;8.15;51.5833;
Bad Staffelstein;;4056831-3;11.001279;50.101990;
Bad Wimpfen;;4066247-0;9.156480;49.229709;
Bad Windsheim;7012382;;10.45;49.5;
Baden (Aargau);7007314;;8.3167;47.4667;
Bamberg;7004325;4004391-5;10.9;49.9;
Bardejov;;4004566-3;21.272710;49.291750;
Barenton;;4337968-0;-0.832580;48.600270;
Bartfeld;7011355;;21.25;49.3;
Barth;1036417;;12.7333;54.3833;
Basel;7007269;4004617-5;7.6;47.55;
Bassiano;;4827634-0;13.031890;41.550420;
Battenberg (Eder);;4086894-1;8.646029;51.013910;
Bautzen;7012305;4004968-1;14.4833;51.1833;
Bayreuth;;4005056-7;11.578888;49.947777;
Bayreuth;7004326;;11.5833;49.45;
Beauvais;;4086997-0;2.083330;49.433329;
Bergamo;7005025;4005611-9;9.6667;45.7;
Berlin;7003712;4005728-8;13.4167;52.5333;
Bern;7007556;4005762-8;16.4833;50.25;
Bernburg;1036449;4005774-4;11.740100;51.794640;
Besançon;7008356;;6.0333;47.2333;
Beuthen;7007626;;18.9667;50.35;
Bevern;1038508;;9.5;51.8667;
Beyerberg;;4739999-5;10.505280;49.112639;
Białogard;1048920;;16;54;
Biberach an der Riß;;4006424-4;9.783333;48.100000;
Biel;8706419;;7.269105;47.13797;oder Bienne. Kanton Bern
Bielefeld;7005978;4006510-8;8.5333;52.0333;
Bietigheim;1038522;;8.25;48.9167;
Bietigheim-Bissingen;7012397;4006554-6;9.117549;48.944070;
Blaenau Ffestiniog;1064586;;-3.9333;52.9833;
Blankenburg;7012401;4007014-1;10.9667;51.8;
Blankenburg-Michaelstein;;4364611-6;10.912639;51.806489;
Bodenwerder;;4080445-8;9.519310;51.971559;
Bologna;7003127;4007616-7;11.4333;44.4667;
Bonn;7005090;;7.1;50.7333;
Bonnefoi;7660618;;0.5643;48.6680;
Boppard;;4007708-1;7.589920;50.230849;
Bordeaux;;4088072-2;-0.580500;44.840440;
Bourg-en-Bresse;;4246164-9;5.225799;46.205739;
Bozen;;4007901-6;11.339722;46.490555;
Brandenburg;7004462;;12.5667;52.4167;
Bratislava;7006465;;17.1667;48.1667;
Braunsberg;7007598;2049941-3;19.8333;54.4;
Braunschweig;7004434;4008065-1;10.5;52.25;
Breda;7006827;4234258-2;4.7667;51.5833;
Bregenz;7003116;;9.7667;47.5167;
Breisach am Rhein;7005968;4008109-6;7.582939;48.032789;
Bremen;;4008135-7;8.833330;53.083329;
Bremen;7005286;;8.8;53.0833;
Bremervörde;1038649;;9.15;53.4833;
Brescello;;4511776-7;10.512290;44.896569;
Brescia;;4008213-1;10.227270;45.524779;
Breslau;7007601;4008216-7;17;51.1;
Bretten;;4008223-4;8.707449;49.036850;
Brieg;;4008252-0;17.467400;50.860790;
Brindisi;;4080536-0;17.936820;40.627729;
Bristol;7011198;;-2.5833;51.45;
Brixen;7005433;;11.6667;46.7167;
Bruchsal;;4008388-3;8.598039;49.124259;
Brugg;8705042;;7.2760;47.1234;
Brugk;7011825;;16.0667;48.8667;
Brzeg;7007623;;17.4667;50.35;
Brzeziny;;5299579-3;19.75144;51.80023;
Brügge;;4069688-1;3.224240;51.208919;
Brünn;7011840;;16.6667;49.2167;
Brüssel;7007868;4008460-7;4.3333;50.8333;
Bunzlau;;4088643-8;15.569699;51.264180;
Burghausen;;4009130-2;12.831388;48.169166;
Burgos;;4080584-0;-3.700000;42.350000;
Butzbach;;4009241-0;8.671219;50.433950;
Byczyna;1048958;;18.1667;51.1167;
Böblingen;;4007430-4;9.029550;48.684950;
Böhmisch-Leipa;;4315195-4;14.537639;50.685510;
Bückeburg;;4008715-3;9.049390;52.260649;
Büdingen;1038289;;9.1167;50.2833;
Büren;;4411255-5;7.97659;52.30596;
Bützow;;4227578-7;11.982559;53.848320;
Caen;7008209;4009282-3;-.3667;49.1833;
Caesarea Maritima;;4088936-1;34.904589;32.518880;
Cambrai;7008456;;3.2333;50.1667;
Cambridge;7010874;;0.1167;52.2;
Cambridge;7013527;;-71.1;42.3667;
Canterbury;7012044;;1.0833;51.2833;
Capestrano;;4689361-1;13.765800;42.268439;
Cardiff;7008742;;-3.2167;51.5;
Cartagena;;4197667-8;-0.986230;37.605119;
Casale Monferrato;7003924;;8.45;45.1333;
Castelo Branco;;4433734-6;-7.490870;39.822189;
Celle;7005317;4009657-9;10.0833;52.6167;
Certaldo;;4085198-9;11.040219;43.547040;
Cesena;7004922;4085200-3;12.25;44.15;
Chassala;7004431;;9.5;51.3;
Chelmsford;7011848;;0.4667;51.7333;
Chemnitz;7005951;4029702-0;12.9167;50.8333;
Chester;;4085244-1;-2.891890;53.190500;
Chur;7007276;;9.5333;46.8667;
City of London;7011798;;-.0833;51.5167;
Clausthal;7205024;;10.3333;51.8;
Clausthal-Zellerfeld;7005931;;10.3333;51.8;
Coburg;7004330;4010325-0;10.9667;50.25;
Colditz;7012802;;12.8167;51.1333;
Colmar;7008119;4010401-1;7.35;48.0833;
Como;7005851;4085313-5;9.0833;45.8;
Conwy;7008539;;-3.8333;53.2833;
Covarrubias;;4334649-2;-3.519559;42.059260;
Cremona;;4010700-0;10.027969;45.136169;
Cronheim;;4585222-4;10.663899;49.095379;
Crossen;1036562;;12.4833;50.7667;
Córdoba;7007513;4010558-1;-4.767222;37.891666;
Dahme;1036579;;13.4333;51.8667;
Dannenberg (Elbe);;4011027-8;11.090000;53.096666;
Danzig;7007660;4011039-4;18.6833;54.3667;
Darmstadt;7004428;;8.65;49.8667;
Daun;;4011195-7;6.829419;50.197159;
Deggendorf;;4011295-0;12.960680;48.840859;
Delft;7006804;4011369-3;4.35;52.0167;
Delitzsch;;4011376-0;12.342840;51.525460;
Demmin;;4090674-7;13.031420;53.907620;
Den Haag;7006810;4011446-6;4.2667;52.0833;
Dersingham;7010781;;0.5;52.85;
Dessau;7012804;;12.25;51.85;
Detmold;;4011555-0;8.873055;51.938333;
Deventer;7006940;4090740-5;6.1667;52.25;
Diessenhofen;;4090794-6;8.749444;47.689166;
Dieuze;;5247571-2;6.7178;48.81263;
Dijon;;4012315-7;5.016670;47.316670;
Dillingen;7012427;;10.5;48.55;
Dillingen an der Donau;7012427;4012328-5;10.5;48.55;
Dinkelsbühl;7012428;;10.35;49.0667;
Dippoldiswalde;;4223824-9;13.669050;50.896210;
Doberlug;;4231033-7;13.550000;51.600000;
Donauwörth;;4012721-7;10.779299;48.718040;
Dordrecht;7006798;;4.6667;51.8;
Dorfchemnitz;;4830886-9;13.450000;50.766666;
Dornburg;7194885;; 11.6667; 51.0167;
Dorpat;7006624;;26.745;58.366;
Dortmund;7004982;;7.45;51.5167;
Dresden;7004455;4012995-0;13.75;51.05;
Droyßig;;7728603-0;12.033329;51.049999;
Dublin;7001306;4013170-1;-6.25;53.3333;
Dubrovnik;;4013176-2;18.092159;42.648069;
Duderstadt;7005933;;10.25;51.5333;
Duffel;;4307647-6;4.509030;51.095539;
Duisburg;7004923;;6.75;51.4333;
Durlach;7013206;;8.4833;49;
Dyhernfurt;;4494802-5;16.708149;51.272990;
Döbeln;;4012586-5;13.110269;51.122100;
Düsseldorf;7004443;;6.7833;51.2167;
Ebeleben-Thüringenhausen;;1064644740;10.800000;51.266666;
Edderitz;;1148989722;11.936944;51.699166;
Ederheim-Christgarten;;4010077-7;10.463820;48.783439;
Edinburgh;7009546;4013557-3;-3.2167;55.95;
Eger;;4013597-4;12.373920;50.079630;
Ehingen (Donau);;4085537-5;9.727500;48.282500;
Ehrenbreitstein;7197734;;7.616667;50.35;
Eichstätt;7004613;;11.2167;48.9;
Eilenburg;1036644;;12.6333;51.4667;
Einbeck;7005635;;9.8833;51.8167;
Einsiedeln;7007350;;8.75;47.1167;
Eisenach;7005969;4014013-1;10.3167;50.9833;
Eisenberg;1036648;;11.9;50.9667;
Eisleben;;4092450-6;11.548333;51.527500;
Eisleben;7012806;;11.55;51.5333;
Elberfeld;7004943;;7.1833;51.2667;
Elbing;7007656;;19.4167;54.1667;
Ellrich;1036656;4396139-3;10.6833;51.5833;
Ellwangen;7012440;;10.1167;48.95;
Elsass;7024265;;7.5;48.1667;
Emden;7005300;4014564-5;7.2167;53.3833;
Emmerich;7005163;4014593-1;6.247919;51.839329;
Engelthal;7187248;;8.916667;50.283333;
Enkhuizen;7007064;;5.2833;52.7;
Enkhuizen;7007064;;5.2833;52.7;
Erfurt;7024031;4015240-6;11.05;50.9667;
Erfurt-Ermstedt;;7623039-9;10.883279;50.967440;
Erlangen;7004332;4015299-6;11.0333;49.6;
Eschwege;7005950;;10.05;51.1833;
Essen;7004905;;6.95;51.45;
Esslingen;7012928;4015575-4;9.304722;48.739444;
Ettlingen;;4015636-9;8.407629;48.940939;
Exeter;7011953;;-3.5167;50.7167;
Faenza;;4091999-7;11.883340;44.285699;
Feldkirch;7003119;;9.6333;47.25;
Felsberg;;4092124-4;9.421388;51.137500;
Ferrara;7004264;;11.6333;44.8333;
Fiesole;7006141;;11.2833;43.8;
Figline Valdarno;;4392330-6;11.469329;43.619549;
Firenze;7000457;;11.25;43783;
Flensburg;7005971;4017506-6;9.4333;54.7833;
Florenz;;4017581-9;11.250000;43.766669;
Forchheim;;4017819-5;11.058611;49.717500;
Forlì;;4086516-2;12.052780;44.223610;
Framlingham;7010931;;1.35;52.2167;
Franeker;7007016;4237485-6;5.55;53.1833;
Frankenberg/Sa.;;4093143-2;13.040110;50.912970;
Frankenstein in Schlesien;;4093148-1;16.812222;50.589444;
Frankenthal;7012458;;8.3667;49.5333;
Frankfurt;7003723;;13.75;52.5;
Frankfurt (Oder);7005972;4018122-4;14.5333;52.3333;
Frankfurt am Main;7005293;4018118-2;8.6833;50.1;
Frankfurt/M.;7005293;;8.6833;50.1;
Frankfurt/O.;7005972;;14.5333;52.3333;
Frauenfeld;;4018220-4;8.898333;47.558055;
Fraustadt;;4093218-7;16.316629;51.807049;
Fregenal de la Sierra;;7532366-7;-6.653699;38.169220;
Freiberg;;4018266-6;13.338611;50.910833;
Freiburg im Breisgau;;4018272-1;7.852222;47.995833;
Freiburg, Schweiz;7007278;;7.1667;46.8333;
Freistadt;7003287;;14.5167;48.5167;
Freyberg;;;9.95;48.116667;
Freystadt in Schlesien;1049149;4308049-2;15.594722;51.745555;
Friedberg (Hessen);7012315;4018510-2;8.755833;50.337222;
Friedland (Mecklenburg);1136834;4093298-9;13.554000;53.670279;
Friedrichsburg;7182907;;-2.1333;4.7833;
Friedrichswerder;7003712;;13.4167;52.5333;
Fulda;;4018859-0;9.675179;50.551619;
Fürstenau (Landkreis Osnabrück);;4093387-8;7.676666;52.516666;
Fürth;7013366;;10.9833;49.4667;
Gandersheim;7005633;;10.0333;51.8833;
Gardelegen;1036756;;11.4;52.55;
Geisa;;4092746-5;9.950749;50.714649;
Geisenhausen;;;12.25;48.466667;
Genf;7007279;4020137-5;6.15;46.2167;
Gent;7007887;4020176-4;3.7;51.0333;
Genua;;4020185-5;8.933859;44.406320;
Gera;7012815;4020295-1;12.0833;50.8667;
Gerstungen-Marksuhl;;4717489-4;10.199999;50.916670;
Gießen;7004429;4020989-1;8.7;50.5833;
Glatz;7007687;;16.6667;50.4667;
Glaucha;7185867;;13.2;51.166667;
Glogau;;4093614-4;16.084499;51.663609;
Glückstadt;;4021332-8;9.425760;53.788930;
Glückstadt;7012480;;9.4333;53.7833;
Gorinchem;;4238291-9;4.972430;51.836520;
Gorsleben;;4742275-0;11.183329;51.266669;
Goslar;7005630;4021643-3;10.4167;51.9167;
Gotha;;4021652-4;10.701666;50.948055;
Gotha;7005938;;10.7167;50.95;
Gouda;7006805;4104351-0;4.7167;52.0167;
Grafschaft Hanau;;;8.916667;50.133333;
Grantham;7010741;;-.6333;52.9;
Graslitz;1027299;;12.5167;50.35;
Grave;;4252903-7;5.738819;51.759019;
Graz;;4021912-4;15.450000;47.066666;
Grebenstein;1039321;;9.4;51.45;
Greenwich;;4093927-3;-0.011760;51.477849;
Greifenberg;;5194436-4;15.416667;51.033333;
Greifenhagen;;4281190-9;14.488310;53.252429;
Greifswald;7004725;4021965-3;13.3833;54.0833;
Greifswald-Eldena;7004726;;13.4333;54.0833;
Greiz;1036834;;12.1833;50.6667;
Grenoble;7008759;;5.7167;45.1833;
Greußen;7176202;4391494-9;10.944166;51.229722;
Grimma;;4022085-0;12.719590;51.233669;
Groningen;7006984;4094052-4;6.5833;53.2167;
Groß Grönau;7174998;;10.75;53.8;
Groß-Glogau;1137033;;16.1;51.6667;
Großenhain;7175928;4094082-2;13.533500;51.289509;
Gröningen;;4333297-3;11.216111;51.937500;
Grünberg (Landkreis Gießen);;4022283-4;8.958611;50.593888;
Grünberg i. Schlesien;;4094132-2;15.506388;51.935277;
Guben;1049078;;14.7167;51.95;
Guhrau;1049033;;16.5333;51.6667;
Gundelfingen a.d. Donau;;4086854-0;10.372230;48.553469;
Gunzenhausen;;4022556-2;10.759710;49.116630;
Gênes;7008546;;8.95;44.4167;
Göhrde;1039164;;10.9;53.1333;
Göppingen;;4021434-5;9.654880;48.702800;
Göritz;;102738143X;13.915555;53.406111;
Görlitz;7012813;4021441-2;15;51.15;
Göteborg;7009954;;11.9667;57.7167;
Göttingen;7005246;4021477-1;9.95;51.5333;
Güstrow;7004797;;12.1833;53.8;
Gütersloh;;4132018-9;8.378539;51.906930;
Haag;7006810;;4.2667;52.0833;
Haarlem;7007048;4022687-6;4.6333;52.3833;
Hagenau;7008077;4094465-7;7.7833;48.8167;
Haguenau;7008077;4094465-7;7.7833;48.8167;
Haigerloch;;4022962-2;8.803570;48.366140;
Halberstadt;7012317;4022987-7;11.0667;51.9;
Halle (Saale);1036898;4023025-9;11.9667;51.4833;
Hallein;7003258;;13.1;47.6833;
Hamburg;7005289;4023118-5;10;53.55;
Hamburg-Altona;7012310;;9.9333;53.55;
Hameln;7005479;;9.3667;52.1167;
Hamm;7005089;;7.8167;51.6667;
Hammelburg;;4023171-9;9.891429;50.116320;
Hanau;7005295;4023201-3;8.9333;50.1333;
Handewitt;;4292637-3;9.333330;54.766669;
Hann. Münden;7005936;;9.683;51.4167;
Hannover;7013260;4023349-2;9.7333;52.4;
Hardegsen;;4329620-8;9.830500;51.652270;
Harderwijk;7006902;;5.6167;52.35;
Harlingen;7007015;;5.4167;53.1667;
Harzburg;7012364;;10.55;51.8833;
Haselünne;;4104376-5;7.484600;52.674120;Landkreis Emsland
Hatfield;7011870;;-.2167;51.7667;
Hauptwil;4023691-2;;9.2525;47.481;
Hedwigsburg;7167979;;10.5833;52.1000;
Heide;;4023987-1;9.098800;54.195790;
Heidelberg;7005177;4023996-2;8.7;49.4167;
Heilbronn;7012495;;9.2333;49.1333;
Heilsbronn;1039519;;10.8;49.333333;
Heinrichs;;4742210-5;10.655490;50.600119;
Helmstedt;7005247;4024344-8;11.0167;52.2333;
Herborn;1039554;4024455-6;8.3167;50.6833;
Herford;;4024481-7;8.673429;52.114570;
Herk-de-Stad;;7676707-3;5.166360;50.940130;
Hermannstadt;7004269;;24.15;45.7667;
Herrenberg;;4024574-3;8.866479;48.595230;
Herrenhausen;7172344;;9.6833;52.3833;
Hersbruck;;4024603-6;11.4339;49.5125;
Herzogenaurach;;4024691-7;10.885650;49.567979;
Herzogenbusch;7006837;;5.3167;51.6833;
Hessisch Oldendorf;;4095179-0;9.249129;52.172690;
Hildburghausen;1036943;4089228-1;10.75;50.4167;
Hilden;;4024876-8;6.930930;51.168179;
Hildesheim;7005248;4024881-1;9.9667;52.15;
Hilpoltstein;;4024918-9;11.190599;49.190469;
Hindenburg (Altmark);;1124181199;11.928888;52.754444;
Hirschberg;1049105;4025049-0;15.728888;50.899722;
Hof;7012508;;11.9333;50.3167;
Hofgeismar;7005297;;9.3667;51.4833;
Hohenems;1025669;;9.7167;47.3833;
Holzminden;;4025727-7;9.445499;51.827979;
Hoorn;7007056;;5.05;52.6333;
Hornbach;1039686;;7.3833;49.1833;
Horní Slavkov;;4273968-8;12.807579;50.138629;
Huesca;7007785;;-.4167;42.1333;
Husum;7012515;4026249-2;9.0667;54.4833;
Höchst;4012613;;8.559;50.1;
Höchstädt an der Donau;1039390;4025322-3;10.568055;48.611111;
Höxter;;4025451-3;9.381550;51.775010;
Ilfeld;1036989;;10.8;51.5833;
Ilmenau;;4026566-3;10.918580;50.683219;
Impruneta;7006144;;11.25;43.7;
Ingelfingen;;4095959-4;9.653029;49.300280;
Ingelheim am Rhein;;4026954-1;8.058611;49.970555;
Ingolstadt;7017035;4026991-7;11.45;48.7667;
Innsbruck;7003249;;11.4;47.2667;
Isny;7006097;;10.0333;47.7;
Istanbul;7002473;;28.95;41.0333;
Izmir;;4096359-7;27.138380;38.412730;
İzmit;;4109182-6;29.916940;40.766939;
Jena;;4028557-1;11.589900;50.928780;
Jena;7005973;;11.5833;50.9333;
Jerusalem;;4028586-8;35.216329;31.769040;
Jever;;4028611-3;7.898055;53.573611;
Jöhstadt;;4096530-2;13.094599;50.512290;
Jülich;;4028835-3;6.363950;50.922699;
Kairo-al-Fustat;;4225633-1;31.239270;30.007370;
Kairuan;;4029239-3;10.096330;35.678100;
Kaisheim;7012523;;10.8;48.7667;
Kalkhorst;1037035;;11.0667;53.9667;
Kamen;;4029404-3;7.663800;51.592309;
Kamenz;;4029407-9;14.093611;51.267777;
Kampen;7006948;;5.9167;52.55;
Karlovy Vary;7011521;4029705-6;12.8667;50.2167;
Karlsbad;7011521;4029705-6;12.8667;50.2167;
Karlsburg;7153637;; 53.9667; 53.9667;
Karlsruhe;7004424;4029713-5;8.4;49.05;
Karlstadt;7012525;4029720-2;9.772389;49.960340;
Karthago;;4029802-4;10.331609;36.861080;
Kaschau;7011529;;21.25;48.7333;
Kassel;;4029869-3;9.500000;51.316666;
Kaufbeuren;;4030060-2;10.621919;47.882379;
Kaysersberg;;4235954-5;7.263849;48.138030;
Kellinghusen;;4030200-3;9.719590;53.952019;
Kemberg;;7732047-5;12.632222;51.771944;
Kempen (Kreis Viersen);;4030225-8;6.418333;51.364166;
Kempten;7012530;;10.3167;47.7333;
Kiel;7004457;4030481-4;10.1333;54.3333;
Kirchhain;;4030779-7;8.928060;50.827199;
Kitzingen;;4030899-6;10.150719;49.739730;
Kjósarsýsla;7006269;;-21.85;64.1667;
Klagenfurt;7003084;;14.3333;46.6333;
Kleve;7012313;;6.1833;51.7833;
Klosterneuburg;7003187;;16.3333;48.3167;
Knittlingen;;4031307-4;8.756059;49.024869;
Koblenz;7004448;;7.6;50.35;
Kolberg;7007688;;15.5833;54.1833;
Konstantinopel;;4073697-0;28.949444;41.013611;
Konstanz;7005174;;9.1667;47.6667;
Kopenhagen;7003474;4032399-7;12.5667;55.7167;
Korbach;;4032450-3;8.872999;51.275610;
Kostrzyn;7007723;;14.6667;52.5833;
Kołobrzeg;7007688;;15.5833;54.1833;
Krakau;7007652;;19.9167;50.05;
Krassolzheim;7150115;;10.3500;49.6000;
Krempe;;4033041-2;9.488300;53.836939;
Krems;7003173;;15.6;48.4167;
Kremsmünster;7003302;;14.1333;48.0833;
Kreuznach;7012371;;7.8667;49.85;
Kronach;;4033262-7;11.333055;50.239444;
Kronstadt;7004272;;25.5833;45.65;
Krummhörn-Greetsiel;;4093928-5;7.094450;53.501620;
Kulmbach;1039952;;11.4667;50.1;
Kuttenberg;7011655;;15.25;49.95;
Köln;7004446;4031483-2;6.95;50.9333;
Köndringen;;4457791-6;7.806129;48.139400;
Königgrätz;7012051;;15.8333;50.2167;
Königsberg;7013050;4031541-1;20.5;54.6667;
Königsberg i. Bay.;7012518;4031535-6;10.567610;50.080800;
Königsberg-Löbenicht;7013050;;20.5;54.6667;
Köslin;;4031607-5;16.172219;54.194380;
Köstritz;1036390;;12;50.9167;
Köthen;7012832;;11.9833;51.7667;
Køge;;4420429-2;12.182140;55.458019;
Küstrin;7007723;;14.6667;52.5833;
L'Aquila;;4099061-8;13.399444;42.350555;
La Haye en Touraine;;1192311302;0.700000;46.966666;
La Rochelle;7009264;;-1.1667;46.1667;
Labin;;4400628-7;14.119719;45.094999;
Ladenburg;4006030;;8.6;49.4667;
Laer;;4444067-4;7.357750;52.055549;
Laibach;7012986;;14.5;46.0667;
Landsberg am Lech;7012559;4034337-6;10.882777;48.048055;
Landshut;7004414;4034367-4;12.1667;48.5167;
Langenargen;;4034500-2;9.541629;47.598579;
Langensalza;1036393;;10.65;51.1;
Langwedel;;4439356-8;9.185420;52.978639;
Laon;;4111215-5;3.616670;49.566670;
Lauban;;4099081-3;15.287679;51.120139;
Lauenburg an der Elbe;7013016;;10.55;53.3833;
Laufenburg;7014138;;8.0667;47.5833;
Lauingen;7012568;4034738-2;10.4333;48.566;
Lausanne;;4034750-3;6.632777;46.515833;
Le Grand-Quevilly;1033867;;1.05;49.4333;
Lechhausen;7138290;;10.9333;48.3833;
Leeuwarden;7007006;4074085-7;5.8;53.2;
Leeuwarden;7007006;;5.8;53.2;
Legnica;7007726;;16.1667;51.2;
Leiden;7006809;4074118-7;4.5;52.1667;
Leipzig;7012329;4035206-7;12.4167;51.3333;
Leisnig;;4111252-0;12.927899;51.157440;
Leitomischl;1027342;;16.3;49.9;
Lemgo;7012571;4035306-0;8.9;52.0333;
Lennep;;4074150-3;7.259999;51.192489;
Lenzen (Elbe);;4382592-8;11.474529;53.091760;
Leszno;1049207;;16.5833;51.85;
Leubsdorf (Landkreis Mittelsachsen);;4605273-2;13.166669;50.799999;
Leucate;;4571154-9;3.029440;42.910559;
Leutenberg;1037197;;11.45;50.55;
Leutkirch im Allgäu;;4035503-2;10.020277;47.826666;
Leutschau;7011691;;20.5833;49.0167;
Lich;1040112;;8.8333;50.5167;
Liebengrün;7138157;;11.65;50.566667;
Liegnitz;;4035683-8;16.161899;51.210059;
Lille;;4114418-1;3.058580;50.632970;
Lindau;;4074242-8;9.684166;47.546111;
Linz;;4074255-6;14.286110;48.306390;
Lippstadt;7012582;4035900-1;8.3167;51.6667;
Lissabon;7010978;4035919-0;-9.1333;38.7333;
Liverpool;7010597;;-3;53.4167;
Liège;7007945;;5.5833;50.6333;
Ljubljana;7012986;4073953-3;14.5;46.0667;
Lobenstein;1037217;;11.65;50.45;
Lodi;7006011;;9.5;45.3167;
London;7011781;4074335-4;-.1667;51.5;
Londonderry;7012110;;-7.3167;55;
Loosduinen;;4497327-5;4.234689;52.050730;
Lowicz;7007581;;19.9333;52.1167;
Lubań;1049215;;15.2833;51.1167;
Lublin;7007732;;22.5167;51.3;
Lucca;;4074354-8;10.505850;43.843569;
Ludwigsburg;7012585;;9.1833;48.9;
Lund;7009837;;13.1667;55.7;
Luxemburg;7006254;;6.1333;49.6167;
Luzern;7007280;;8.2833;47.05;
Lyon;7008772;4036770-8;4.8333;45.7667;
Löcknitz;1037135;;14.2167;53.4667;
Löwen;7007949;4074300-7;4.7;50.8833;
Löwenburg JU;8705364;;7.2906;47.4076;
Lübeck;7012327;4036483-5;10.6667;53.8667;
Lüneburg;7004436;4036512-8;10.4;53.25;
Lünen;;4036521-9;7.528719;51.616340;
Lüttich;;4074361-5;5.567490;50.633729;
Maastricht;7006862;;5.7;50.85;
Macerata;7004018;;13.45;43.3;
Madrid;;4036862-2;-3.702560;40.416499;
Madrid;7010413;;-3.7167;40.4167;
Magdeburg;7004456;4036934-1;11.6167;52.1333;
Mailand;;4037100-1;9.189510;45.464269;
Mainz;7004449;4037124-4;8.2667;50;
Malbork;7007740;;19.05;54.0333;
Malmö;;4114951-8;13.300000;55.605870;
Mannheim;7005179;;8.4667;49.5;
Mansfeld;;4037392-7;11.452222;51.592222;
Mantua;;4114978-6;10.797840;45.160310;
Marburg;7012330;4037446-4;8.7667;50.8167;
Mariastein, Solothurn;8703802;; 7.5167;47.4667;
Marienwerder;7007660;;18.6833;54.3667;
Markgrafschaft Baden-Durlach;2087942;;-76.2167;40.2167;
Massa Marittima;7006080;4264257-7;10.892830;43.049030;
Mecheln;7008736;4074654-9;4.4833;51.0333;
Meersburg;7012597;;9.2833;47.7;
Meinhard-Grebendorf;;7594601-4;10.066219;51.206000;
Meiningen;7012843;4038453-6;10.4167;50.55;
Meisenheim;1040297;;7.6667;49.7;
Meißen;;4038474-3;13.473611;51.161388;
Melk;7003193;;15.35;48.2333;
Memmingen;;4038586-3;10.185269;47.983719;
Mergental;7005181;;9.7667;49.5;Fraglich, vgl. VD17 1:019713S
Mergentheim;7005181;;9.7667;49.5;
Merseburg;7012845;;12;51.3667;
Meuselwitz;;4263806-9;12.299350;51.043160;
Michaelstein;7130041;4364611-6;10.916667;51.8167;
Middelburg;4007173;4115142-2;3.4167;51.25;
Milan;7005903;;9.2;45.4667;
Milbitz b. Rottenbach;;1063730678;11.138055;50.694166;
Minden;7005099;;8.9;52.3;
Mirandola;;4364709-1;11.066200;44.886769;
Mitau;7006473;;23.6667;56.65;
Modena;;4115170-7;10.925390;44.647829;
Moers;;4039916-3;6.632600;51.453420;
Mohrungen;;4101115-6;19.926020;53.917110;
Mollis;;4527550-6;9.07242;47.08878;
Molsheim;7009344;;7.5;48.55;
Monschau;;4040116-9;6.240009;50.554619;
Montargis;;4231911-0;2.750000;48.000000;
Montbéliard;7009347;;6.8;47.5167;
Montepulciano;;4115211-6;11.786839;43.101739;
Montpellier;7009369;;3.8833;43.6;
Montreuil;;4284726-6;1.76348;50.46374;
Moskau;7012974;;37.7;55.75;
Most;7011712;;13.65;50.5167;
Motta di Livenza;;4191783-2;12.602779;45.778060;
Motzlar;;1184521565;9.965249;50.679330;
Mulhouse;7012333;;7.35;47.75;
Möckern;;4338369-5;11.951944;52.140833;
Mönchberg;7135122;;9.55;48.45;
Mühlhausen;7005939;4040466-3;10.4667;51.2167;
Mülhausen;;4040474-2;7.333330;47.750000;
Mülheim am Rhein;7134539;; 7.0167;50.9667;
Münchberg;7135122;;9.55;48.45;
München;7134068;4127793-4;13.4667;48.7000;
Münster;7004445;4040608-8;7.6333;51.9667;
Nancy;7008412;4041201-5;6.2;48.7;
Nantes;7008482;4041204-0;-1.5833;47.2333;
Naples;7004474;;14.25;40.8333;
Naugard;;4102390-0;15.116300;53.674370;
Naumburg (Saale);;4041445-0;11.809722;51.149722;
Neapel;;4041476-0;14.250000;40.833329;
Neiße;1049304;;17.3333;50.5;
Nellingen;;4355634-6;9.790277;48.541944;
Neuburg;;4041719-0;11.186944;48.731944;
Neudamm;1049004;;14.7;52.7167;Tham in der Neumark, Debno
Neuenstadt am Kocher;1040446;;9.3167;49.2333;
Neugrätz;1049615;;16.25;51.8167;bei Wschowa
Neuhaldensleben;;4117825-7;11.409722;52.289166;
Neuhaus;1041113;;8.7167;51.7333;Schloss Neuhaus
Neuhausen (Worms);;4601198-5;8.346669;49.645839;
Neukölln;7122330;;13.4333;52.4667;
Neumarkt i.d. OPf.;;4041837-6;11.462777;49.280277;
Neuruppin;7012848;;12.8167;52.9333;
Neustadt an der Aisch;1040479;;10.6333;49.5833;
Neustadt an der Orla;;4191795-9;11.746111;50.736388;
Neustadt an der Saale;7004416;;10.2;50.3333;
Neustadt an der Weinstraße;7004417;;8.15;49.35;
Newcastle upon Tyne;7012026;;-1.5833;54.9833;
Nidda;;4042163-6;9.006380;50.413299;
Niedermarsberg;1040505;;8.85;51.45;
Niedersachswerfen;;4439815-3;10.766669;51.566670;
Nienburg / Weser;;4042268-9;9.220833;52.646111;
Nijmegen;7031832;;5.8667;51.8333;
Norden;;4042513-7;7.206389;53.595520;
Nordhausen;7012851;4042532-0;10.8;51.5167;
Northeim;;4042636-1;9.999980;51.706620;
Norwich;7012005;;1.3;52.6333;
Noyon;;4042721-3;3.000000;49.583329;
Nîmes;;4117890-7;4.349999;43.833329;
Nördlingen;7012334;4042434-0;10.5167;48.85;
Nürnberg;7004334;4042742-0;11.0667;49.45;
Nürnberg-Wöhrd;;4117951-1;11.09594;49.45423;
Oberglogau;1049040;;17.8333;50.35;
Oberlungwitz;1037409;;12.7167;50.7833;
Obermarchtal;7012622;;9.5833;48.2333;
Obermarsberg;4008094;;8.85;51.4667;
Oberursel;7012626;;8.5833;50.2;
Oedenburg;7010514;;16.5833;47.6667;Sopron
Oels;1049316;;17.35;51.2;
Oettingen in Bayern;7012633;4116730-2;10.6333;48.95;
Offenbach;7012634;;8.7667;50.1;
Ohlau;;4384267-7;17.292600;50.946599;
Ohrdruf;;4211782-3;10.734166;50.828888;
Oldenburg;7004439;4043457-6;8;53;
Oldenswort;;4424571-3;8.939959;54.372430;
Oleśnica;1049316;;17.35;51.2;
Oliva;4008183;;18.5667;54.420949;
Olmütz;;4075643-9;17.251750;49.595520;
Oppenheim;7012639;;8.3667;49.8667;
Orgelet;;4370925-4;5.610490;46.520960;
Orléans;7008337;;1.9;47.9;
Ornans;;4435970-6;6.143060;47.107489;
Oschatz;1037435;;13.1167;51.3;
Oslo;7009573;;10.75;59.9333;
Osnabrück;7005252;4043974-4;8.05;52.2833;
Osterode am Harz;;4044041-2;10.250833;51.726666;
Ottensen;;5030792-7;9.916666;53.549722;
Oudewater;;4354469-1;4.868059;52.024999;
Oxford;7011931;4044234-2;-1.25;51.7667;
Paderborn;;4044283-4;8.754390;51.719050;
Padua;7003085;4044295-0;11.8833;45.4167;
Palma de Mallorca;;4115833-7;2.650240;39.569389;
Parchim;1037464;;11.85;53.4333;
Paris;7008038;4044660-8;2.3333;48.8667;
Passau;7004407;;13.4667;48.5833;
Pavia;;4044970-1;9.161450;45.184460;
Pegau;7012856;;12.25;51.1667;
Pella (Nordgriechenland);;4045057-0;22.519169;40.759999;
Penig;;4285495-7;12.704219;50.933360;
Perleberg;;4269332-9;11.857390;53.075830;
Pescina;;4301157-3;13.651160;42.023510;
Pesing;7011722;;17.25;48.2833;Pezinok
Peuerbach;;4245569-8;13.772050;48.345300;
Pfaffenhofen;7121193;; 11.5347;48.5814;Pfaffenhofen an der Ilm
Pferdingsleben;;4291750-5;10.816670;50.966670;
Pforzheim;7012653;4045637-7;8.7;48.8833;
Piacenza;;4046001-0;9.699370;45.046759;
Piadena;;4247143-6;10.371010;45.128590;
Pienza;7006322;;11.6833;43.0667;
Pilsen;;4076145-9;13.377589;49.747469;
Pilsum;1040740;;7.0667;53.4833;
Piombino;;4383506-5;10.522119;42.934820;
Pirna;;4046147-6;13.937020;50.958429;
Pisa;;4046151-8;10.396589;43.715530;
Pitcairn Islands;7005269;;-130.0833;-25.0667;
Pitschen;7121379;;13.5833;51.8667;
Plauen;;4046334-5;12.137777;50.497222;
Plänitz;;7591300-8;12.406140;52.877830;
Plön;1040743;;10.4333;54.1667;
Porto;7010979;;-8.5833;41.1667;
Portoferraio;7006196;;10.3333;42.8167;
Poschiavo;1064304;;10.0667;46.3167;
Posen;7007756;;16.8833;52.4167;
Potsdam;7004463;4046948-7;13.0667;52.4;
Pottendorf;1025956;;16.3833;47.9167;
Prag;7006464;4076310-9;14.4333;50.1;
Prato;7006161;;11.1;43.8833;
Preßburg;7006465;;17.1667;48.1667;
Priorau;;1063686539;12.282777;51.732500;
Pruntrut;7007445;;7.1;47.4167;
Pyrmont;7005480;;9.2667;51.9833;
Quedlinburg;7012857;4048035-5;11.15;51.8;
Radeburg;1037550;;13.7333;51.2167;
Ragnitz;;4997378-2;15.592779;46.836669;
Raków;;4460386-1;21.045000;50.674166;
Rappoltsweiler;;4420082-1;7.319379;48.195099;
Rathenow;;4104905-6;12.336959;52.606589;
Ratzeburg;7012665;;10.7667;53.7;
Ravensburg;7005184;;9.6167;47.7833;
Rawicz;1049413;;16.85;51.6333;
Recklinghausen;;4048864-0;7.197222;51.613611;
Rees;1040842;;6.4;51.7667;
Regensburg;7013496;4048989-9;12.1;49.0167;
Reichenbach im Vogtland;;4278871-7;12.303333;50.622777;
Remlingen;7111296; 4502271-9;10.6667;52.1167;
Rendsburg;;4049461-5;9.663130;54.306629;
Rethimnon;;4274296-1;24.471389;35.364719;
Reutlingen;7012674;;9.2167;48.5;
Reval;7006629;;24.728;59.433;
Rheinberg;;4049744-6;6.595240;51.546489;
Riga;;4050042-1;24.105889;56.945999;
Rijssel;;7683719-1;5.161059;51.047989;
Rinteln;1040922;4050107-3;9.0667;52.1833;
Riva del Garda;;4192166-5;10.84117;45.88577;
Rochlitz;;4050226-0;12.797539;51.050069;
Roermond;7006856;;6;51.2;
Rom;7000874;4050471-2;12.5;41.8833;
Rorschach;7007453;;9.5;47.4667;
Rosenheim;;4050554-6;12.122469;47.856369;
Rostock;7004717;4050610-1;12.15;54.1;
Rothenberg;7102204;;11.366667;49.55;
Rothenburg ob der Tauber;7005188;;10.2167;49.3833;
Rotterdam;7006792;4050739-7;4.4833;51.9167;
Rottleben;;1112611835;11.050000;51.366669;
Rottweil;7012685;;8.6167;48.1667;
Rouen;7008929;4050751-8;1.0833;49.4333;
Roßwein;;4305326-9;13.183080;51.065890;
Rudolstadt;7012862;4105066-6;11.3333;50.7167;
Rufach;;4105093-9;7.300160;47.957859;
Ruine Liebeneck;7138158;;11.366667;49.033333;
Runkel;;4051003-7;8.154569;50.405740;
Römhild;7012861;;10.55;50.3833;
Rügenwalde;;4105080-0;16.410699;54.420949;
Saalfeld;7012864;4051087-6;11.3667;50.65;
Sagan;;4234600-9;15.314859;51.617589;
Saint Petersburg;7010273;;30.25;59.8833;
Saint-Martin-du-Frêne;;1126056723;5.552500;46.138888;
Saldus;;1048044599;22.488055;56.663611;
Salerno;;4051362-2;14.765990;40.677970;
Salzburg;7003256;4076982-3;13.05;47.8;
Salzderhelden;;4445440-5;9.916940;51.798430;
Salzwedel;;4105266-3;11.152499;52.854349;
Sandomierz;;4378952-3;21.748979;50.682650;
Sangerhausen;;4051574-6;11.295329;51.472209;
Sankt Gallen;;4051594-1;9.374722;47.423888;
Sankt Hubert;1041029;;6.45;51.3833;
Saragossa;7008813;;-.9;41.65;
Saumur;;4051828-0;-0.083330;47.266669;
Schaffhausen;;4051993-4;8.634722;47.697222;
Schiedam;7006800;;4.4167;51.9167;
Schkeuditz;;4364737-6;12.221410;51.396779;
Schlanstedt;;7641182-5;11.030960;52.012250;
Schleid-Motzlar;;7708544-9;9.965249;50.679330;
Schleiden;;4315285-5;6.476666;50.528888;
Schleiz;1037680;;11.8167;50.5667;
Schleswig;7012700;4052689-6;9.55;54.5167;
Schlettstadt;;4052703-7;7.450000;48.266669;
Schleusingen;1037684;4052708-6;10.7667;50.5167;
Schlichtingsheim;1049522;;16.2667;51.7167;
Schmalkalden;;4052793-1;10.443860;50.721359;
Schmiedeberg;;;15.836314960570819;50.7924294 ;Schmiedeberg im Riesengebirge, heute Kowary
Schneeberg;;4052988-5;12.641389;50.594650;
Schorndorf;;4053210-0;9.526944;48.805277;
Schwabach;7012909;4053665-8;11.0333;49.3333;
Schwabegg;7093743;; 10.6833; 48.1833;
Schweidnitz;7007556;;16.4833;50.25;
Schweinfurt;;4053863-1;10.221750;50.049370;
Schwelm;;4053923-4;7.293879;51.286349;
Schwerin;;4053950-7;11.413159;53.629370;
Schwyz;7007465;;8.65;47.0333;
Schwäbisch Gmünd;7012707;;9.7833;48.8;
Schwäbisch Hall;7012708;4053684-1;9.7333;49.1;
Schöningen (Landkreis Helmstedt);;4106620-0;10.967449;52.138019;
Sedan;7009674;4054074-1;4.95;49.7;
Seebergen (Drei Gleichen);;5268082-4;10.799166;50.920833;
Semur-en-Auxois;;4118583-3;4.333330;47.483330;
Sens;7008255;;3.3;48.2;
Sevilla;;4054671-8;-5.976130;37.382410;
Shkodër;;4325862-1;19.512579;42.068280;
Siegen;7012712;4054883-1;8.0333;50.8667;
Siena;7011179;4054903-3;11.3167;43.3167;
Soest;;4055374-7;8.106189;51.575580;
Solothurn;7007295;;7.5333;47.2167;
Sommerhausen;7099322;;10.0333;49.7000;
Sondershausen;1037748;4055548-3;10.8667;51.3667;
Sora;;4447008-3;13.614100;41.715719;
Sorau;;64338-5;15.137222;51.641944;
Sorø;7003597;;11.5667;55.4333;
Spandau;7097050;4069319-3;13.199210;52.551099;
Spangenberg;;4130043-9;9.662699;51.116439;
Sparenberg;7097006;;8.3667; 47.7833;
Speyer;7012341;4056179-3;8.4333;49.3167;
Squillace;;4385748-6;16.512200;38.779479;
St. Gallen;1026021;;14.6167;47.6833;
Stade;1041281;;9.4667;53.6;
Stadtamhof;4010711;;12.1167;49.0333;
Stadthagen;7005478;;9.2167;52.3167;
Stadtlohn;;4056746-1;6.919179;51.993989;
Stadtsteinach;;4105539-1;11.503333;50.164166;
Stagira;;4823144-7;23.75159;40.53042;
Stargard in Pommern;7007797;5057076-6;18.5;53.9667;
Steinau an der Oder;1048843;;16.4167;51.4333;
Steinfurt;1041314;;7.35;52.15;
Steinheim (Kreis Höxter);;4057182-8;9.091359;51.870660;
Stendal;7012875;4057260-2;11.85;52.6;
Stettin;;4057392-8;14.552777;53.428888;
Steyr;7003303;;14.4167;48.0667;
Stockholm;7009861;4057648-6;18.0833;59.3333;
Stolberg;;4118832-9;10.955555;51.574166;
Stolp;7067268;;12.9000;52.4833;
Stralsund;7004718;4057860-4;13.1;54.3;
Straubing;7004413;;12.5833;48.8833;
Strausberg;;4245400-1;13.887409;52.578589;
Straßburg;7012346;4057878-1;7.75;48.5833;
Striegnitz;;7679560-3;13.283670;51.224580;
Strängnäs;7009862;;17.0333;59.3833;
Stuttgart;7004425;4058282-6;9.2;48.7833;
Sulechów;1049505;;15.6167;52.1;
Sulz am Neckar;;4374010-8;8.633055;48.362222;
Sulzbach;7072465;;9.159167;49.910833;
Sulzbach-Rosenberg;7004409;4078064-8;11.7667;49.5;
Szczecin;7007809;;14.5333;53.4167;
Szegedin;7010516;;20.15;46.25;
Świdnica;;4053841-2;16.488589;50.843780;
Tagliacozzo;;4301158-5;13.254690;42.069330;
Talcy, Château de;1100356;;1.45;47.7667;
Tallinn;7006629;;24.728;59.433;
Tapia de Casariego;7297207;;-6.95;43.566667;
Tarragona;7008715;;1.25;41.1167;
Tecklenburg;1041392;;7.8333;52.2167;
Tegernsee;7004693;;11.7667;47.7;
Thann;7009500;;7.0833;47.8167;
Themar;;4365202-5;10.615360;50.504649;
Thorn;;4059950-4;18.598140;53.013750;
Thurnau;1041418;;11.4;50.0167;
Tiel;7006875;;5.4333;51.8833;
Toledo;;4078343-1;-4.022630;39.858100;
Tolentino;;4336897-9;13.290079;43.212550;
Torgau;;4060446-9;12.996169;51.560160;
Tortona;7005603;;8.8667;44.9;
Toruń;7007831;4059950-4;18.5833;53.0167;
Toul;7009506;;5.9;48.6833;
Toulouse;;4060518-8;1.443670;43.604259;
Tournon-sur-Rhône;;4106548-7;6.302439;45.642049;
Treuenbrietzen;;4298959-0;12.872579;52.097540;
Trient;7005128;;11.133;46.066;
Trier;7004447;;6.65;49.75;
Trnava;7011810;;17.5833;48.3833;
Troyes;7008350;;4.0833;48.3;
Trumpington;7024822;;0.1167;52.1833;
Trévoux;7009510;;4.7667;45.95;
Tunbridge Wells;7011676;;0.2667;51.1333;
Turin;7005688;4061245-4;7.6667;45.0667;
Tyrnau;7011810;;17.5833;48.3833;
Töss;;4355064-2;8.70215;47.4789;
Tübingen;7004426;4061147-4;9.05;48.5333;
Udine;7005139;4117272-3;13.2333;46.0667;
Uelsen;7005313;4354804-0;10.5667;52.9667;
Uelzen;7005313;;10.5667;52.9667;
Ulm;7005187;4061529-7;10;48.4;
Uppsala;7009867;4078659-6;17.6333;59.9167;
Uranienborg;7009875;;12.6782824;55.9057932;
Urbino;;4119316-7;12.636329;43.726210;
Uri;7003761;;8.6667;46.8333;
Ursberg;;4117308-9;10.445940;48.264279;
Utrecht;7006926;4062222-8;5.1167;52.1;
Vaihingen an der Enz;;4062257-5;8.960277;48.935555;
Valdorf;1041520;;8.85;52.15;
Valencia;;4062284-8;-0.377222;39.469722;
Venedig;7018159;4062501-1;12.3333;45.4333;
Verona;7003262;4063110-2;11;45.4333;
Vézelay;;4063430-9;3.74559;47.46572;
Vianen;7006907;;5.0833;52;
Vicenza;;4063445-0;11.540900;45.557290;
Vienne;7008589;;4.9;45.5333;
Villingen im Schwarzwald;;4063544-2;8.456666;48.059722;
Vilnius;7006521;;25.3167;54.6833;
Visingsborg;1009653;;14.33750;58.04777;
Viterbo;;4119454-8;12.108560;42.417830;
Vlissingen;7006750;;3.5833;51.45;
Vlotho;1041563;;8.85;52.1667;
Waiblingen;;4064328-1;9.316409;48.832410;
Walcourt;;4747460-9;4.437960;50.254010;
Waldenburg (Landkreis Zwickau);;4439683-1;12.599199;50.876530;
Walkersbrunn;;4118968-1;11.209139;49.653900;
Waltershausen;;4064494-7;10.557909;50.898269;
Wandsbek;7005957;;10.0667;53.5667;
Wangen im Allgäu;;4064555-1;9.832222;47.689444;
Warburg;7012758;;9.1667;51.5;
Warendorf;;4064587-3;7.987560;51.951090;
Warschau;;4079048-4;21.011780;52.229770;
Warstein;7012759;;8.3667;51.45;
Wedel;1041687;;9.7167;53.5833;
Weida;1037943;4119012-9;12.060280;50.774490;
Weiden;7086205;;11.233333;50.033333;
Weil der Stadt;;4065086-8;8.871760;48.749530;
Weimar;7012886;4065105-8;11.3167;50.9833;
Weingarten;;4065156-3;9.638611;47.810000;
Weinheim;1041717;;8.6833;49.5167;
Weinsberg;;4065180-0;9.287620;49.151279;
Weißenburg (Elsass);;4079134-8;7.945555;49.036944;
Weißenfels;7085364;;12.073889;51.194722;
Weißenstadt;;4065251-8;11.888489;50.102170;
Wemding;;4065484-9;10.724520;48.874609;
Wermelskirchen-Dabringhausen;;4541390-3;7.190000;51.090519;
Wernigerode;7012889;;10.7833;51.8333;
Wertheim;;4065663-9;9.508520;49.759000;
Wesel;7005168;4065697-4;6.6167;51.6667;
Wettingen;7007496;;8.3333;47.4667;
Wetzlar;7012774;;8.5;50.55;
Wien;7003321;4066009-6;16.3667;48.2167;
Wiener Neustadt;7003181;4066023-0;16.25;47.8167;
Wiesendangen;8709666;;8.7900;47.5222;
Wildberg;1041824;;8.75;48.6333;
Wildhaus;;4119117-1;9.353888;47.205833;
Wildschütz;7084272;;12.0667;51.1167;
Wilhermsdorf;7083578;;10.716667;49.483333;
Windsheim;7012382;;10.45;49.5;
Winnenden;;4066313-9;9.398189;48.875630;
Winterthur;;4066337-1;8.723888;47.505555;
Wismar;7004719;;11.4667;53.9;
Wittenberg;7078542;4066640-2;12.649729;51.866100;
Wittenberg-Kropstädt;1037122;4738788-9;12.745499;51.963070;
Wittmund;;4108467-6;7.778389;53.576740;
Wohlau;;4066727-3;16.644290;51.336559;
Wolfenbüttel;7005253;4066832-0;10.55;52.1667;
Wolgast;1038016;;13.7667;54.05;
Wollin (Landkreis Usedom-Wollin);;113224-6;14.614444;53.841944;
Worcester;;4119169-9;-2.220009;52.189349;
Wormerveer;1048257;;4.7833;52.5;
Worms;7005108;;8.35;49.6333;
Wunsiedel;1041888;;12.0167;50.0333;
Würzburg;7004335;4067037-5;9.9333;49.8;
York;7011995;;-1.0833;53.9667;
Zagań;1048861;;15.3333;51.6167;
Zamora;;4216370-5;-5.744559;41.506329;
Zandvoort;1048265;;4.5167;52.3667;
Zaragoza;;4079463-5;-0.877340;41.656059;
Zasław;;7532399-0;22.257419;49.525329;
Zeitz;7012351;4067525-7;12.15;51.05;
Zellerfeld;7005931;;10.3333;51.8;
Zerbst;7012892;;12.0833;51.9667;
Zierikzee;7030107;;3.916;51.65;
Zittau;7017177;;14.75;50.9;
Zschopau;;4109065-2;13.076909;50.748179;
Zug;7007544;;8.5167;47.1667;
Zutphen;;4119265-5;6.201389;52.138330;
Zweibrücken;7012352;;7.3667;49.25;
Zwettl;7003169;;15.1667;48.6167;
Zwickau;7012354;4068262-6;12.5;50.7333;
Zwolle;7007077;;6.1;52.5167;
Züllichau;;4119257-6;15.625130;52.083620;
Zürich;7007302;4068038-1;8.55;47.3833;
Öhringen;7005183;;9.5;49.2;
Überlingen;7012359;;9.1667;47.7667;
Šibenik;;4387004-1;15.905829;43.727220;
Żary;;4333557-3;15.137222;51.641944;
